{
   "html_attributions" : [],
   "results" : [
      {
         "geometry" : {
            "location" : {
               "lat" : 21.2113861,
               "lng" : 72.8484112
            },
            "viewport" : {
               "northeast" : {
                  "lat" : 21.21273592989272,
                  "lng" : 72.84976102989273
               },
               "southwest" : {
                  "lat" : 21.21003627010728,
                  "lng" : 72.84706137010728
               }
            }
         },
         "icon" : "https://maps.gstatic.com/mapfiles/place_api/icons/bar-71.png",
         "id" : "358d0736c69b4d293da515f0740fc4a73dcee4ec",
         "name" : "Premavathi Dinning Hall",
         "opening_hours" : {
            "open_now" : true,
            "weekday_text" : []
         },
         "place_id" : "ChIJO0kz4vxO4DsRFGu1k8ZxnxI",
         "rating" : 3,
         "reference" : "CmRbAAAAdckNWLWKIkPbG4b6qsO9WLrEZ12IDgkjFMrAnWyGZkeFcgsfWl4I2mA-LV1LnjkjYqu_XYNoGqBuqp_NSQanGJoMdRNKJdflsyyRS-8u7vVQ6eHW91mnRqpWXpvvN5tkEhCcexEWDdETYVcrqSosWCXxGhSAQIqk0HxbamNebU6PJHwyXq-fFA",
         "scope" : "GOOGLE",
         "types" : [ "bar", "point_of_interest", "establishment" ],
         "vicinity" : "Kohinoor Rd, Near Diamond World, Mini Bazar, Khodiyar Nagar, Surat"
      },
      {
         "geometry" : {
            "location" : {
               "lat" : 21.1521153,
               "lng" : 72.83936249999999
            },
            "viewport" : {
               "northeast" : {
                  "lat" : 21.15346512989272,
                  "lng" : 72.84071232989272
               },
               "southwest" : {
                  "lat" : 21.15076547010728,
                  "lng" : 72.83801267010728
               }
            }
         },
         "icon" : "https://maps.gstatic.com/mapfiles/place_api/icons/bar-71.png",
         "id" : "3b2bb3b4e2334adf12fba974c9b05e45de4af2a9",
         "name" : "R. G. C. S. M.",
         "place_id" : "ChIJVVVVKdhR4DsRB_NLdWcD0RQ",
         "rating" : 1,
         "reference" : "CmRbAAAA0SignV0dhmetZdJqsGitXX7n0JUCTqAu9xy4u5O0vc4NMxFjrSzsd3nmpuTWLatgq75aXgMULQgDQcklvohkNj1f0uJHzJ0ZFtl6i04WSm-97MIKvDe0E3xHK5wuIGBGEhBHo7PLzKymXdBxsiy89G3RGhRFjV5bfcXeYf9Zk5r8oHol5FNvZQ",
         "scope" : "GOOGLE",
         "types" : [ "bar", "point_of_interest", "establishment" ],
         "vicinity" : "209, Bhedwad, Kalyan Kutir, Udhna, Surat"
      },
      {
         "geometry" : {
            "location" : {
               "lat" : 21.1657676,
               "lng" : 72.79393859999999
            },
            "viewport" : {
               "northeast" : {
                  "lat" : 21.16711742989272,
                  "lng" : 72.79528842989271
               },
               "southwest" : {
                  "lat" : 21.16441777010727,
                  "lng" : 72.79258877010727
               }
            }
         },
         "icon" : "https://maps.gstatic.com/mapfiles/place_api/icons/bar-71.png",
         "id" : "e0f27be3700dfe6d969fc9a9a02ea87a536f3154",
         "name" : "Panchayat zone or panhouse",
         "opening_hours" : {
            "open_now" : true,
            "weekday_text" : []
         },
         "place_id" : "ChIJAQAAwOVN4DsRlx5UfVYF4B4",
         "rating" : 3,
         "reference" : "CmRbAAAABrhmlDKmrl8LqSihftjegZCtbXc5GmjK0R9dYkduweF6YVpu9034AjrEF0Y1Qmt1AWsajNNInExkfZzaM4B4Unl0w6uU4ZW5jPYjyEfES3jFPt_W45-2yae2eDLXy15eEhDgbBy_2mce3c-e79aIosnpGhRtCkY7MRpNvg5xC1_qTq6m5J_XTw",
         "scope" : "GOOGLE",
         "types" : [ "bar", "point_of_interest", "establishment" ],
         "vicinity" : "City Light Town, Athwa, Surat"
      },
      {
         "geometry" : {
            "location" : {
               "lat" : 21.146944,
               "lng" : 72.82256
            },
            "viewport" : {
               "northeast" : {
                  "lat" : 21.14829382989272,
                  "lng" : 72.82390982989271
               },
               "southwest" : {
                  "lat" : 21.14559417010728,
                  "lng" : 72.82121017010728
               }
            }
         },
         "icon" : "https://maps.gstatic.com/mapfiles/place_api/icons/bar-71.png",
         "id" : "1bb3e4236b92fec3e38c1c54ee51e1b2c924cf41",
         "name" : "Pppp",
         "opening_hours" : {
            "open_now" : true,
            "weekday_text" : []
         },
         "place_id" : "ChIJP1VVrOZR4DsR7JCXHAtl0yw",
         "rating" : 4,
         "reference" : "CmRbAAAAniXLlLErM6S0p5GVqzvYYfVQa313L1xPqpyCXUdPdw9mzoSBTkwew3GGP9FxhLEx-HDV93rICdaTK_0ibYVK7htE3EeKA2WUWzWavtBXn3a4pu_s4LLARilCNFpg8CdqEhA_2-nQ02Y2PhUrNKnAbe1XGhTYesVHU2XfxfI--c5Xehv3XpoSOg",
         "scope" : "GOOGLE",
         "types" : [ "bar", "point_of_interest", "establishment" ],
         "vicinity" : "142, New Bamroli Rd, Bhakti Nagar, New Bamroli Rd, Bhakti Nagar, Nem Nagar, Pandesara, Udhna, Surat"
      },
      {
         "geometry" : {
            "location" : {
               "lat" : 21.1869827,
               "lng" : 72.79446129999999
            },
            "viewport" : {
               "northeast" : {
                  "lat" : 21.18833252989272,
                  "lng" : 72.79581112989273
               },
               "southwest" : {
                  "lat" : 21.18563287010728,
                  "lng" : 72.79311147010728
               }
            }
         },
         "icon" : "https://maps.gstatic.com/mapfiles/place_api/icons/bar-71.png",
         "id" : "b00cfbdcb1f36434bd48fd4ebf3f2614a1198f41",
         "name" : "Ghantawala Pan Bhandar",
         "opening_hours" : {
            "open_now" : true,
            "weekday_text" : []
         },
         "place_id" : "ChIJl6fzTtBN4DsRlkn1tew5Gmc",
         "rating" : 4.4,
         "reference" : "CmRbAAAA8f9eOUkUUbMgJ97krX2tteDyUiJebiSw8J6XxaXSUxihNafzDj4HmduY9CxyqHP_RWAH2ZbOmVhiR3v9rR5GwK6k7GCcDiBKsK8OJKpdyqWu-7kGJVhrDiFn_PpPxRtKEhC7jyi0xuc8Rdq5WgrxRhoEGhS1YfRQNsTDh0V9CKDmfbU_R2jIPQ",
         "scope" : "GOOGLE",
         "types" : [ "bar", "point_of_interest", "establishment" ],
         "vicinity" : "36, Hazira - Adajan Rd, Maher Nager, Jalaram Society, Adajan Gam, Adajan, Surat"
      },
      {
         "geometry" : {
            "location" : {
               "lat" : 21.1364726,
               "lng" : 72.814314
            },
            "viewport" : {
               "northeast" : {
                  "lat" : 21.13782242989272,
                  "lng" : 72.81566382989271
               },
               "southwest" : {
                  "lat" : 21.13512277010728,
                  "lng" : 72.81296417010728
               }
            }
         },
         "icon" : "https://maps.gstatic.com/mapfiles/place_api/icons/bar-71.png",
         "id" : "17ef05e97999eb31d3998d4725a76a91e280d97d",
         "name" : "Chintu bar",
         "opening_hours" : {
            "open_now" : true,
            "weekday_text" : []
         },
         "photos" : [
            {
               "height" : 2560,
               "html_attributions" : [
                  "\u003ca href=\"https://maps.google.com/maps/contrib/101590704288773714631/photos\"\u003eA Google User\u003c/a\u003e"
               ],
               "photo_reference" : "CmRaAAAAA04hX8fHwuh_oOZdDWyqIqs9TzewtDnZhAG_noobPr6RW6OktM4MvIr80qeIjFS3TgdojRzapcGO-wptlGxPzW2_r_5HNnjA8D8kblE_Zb_QoNVJTj5u5Hqu0XnfCUjREhBY9HYrcrtgX5ulM7kWRK2PGhSVK2YUgEPjBtSY0d3izjjP7yh7VA",
               "width" : 1920
            }
         ],
         "place_id" : "ChIJfZO7vvFR4DsRFCUjFCek-eY",
         "rating" : 5,
         "reference" : "CmRbAAAAkT7kdKOQiADPoZWF5PT1-VRxI3cni6wugQyi5omguhuMEvw_Ph3OiS6DDDCEL_MRxEecFTwHmFaGm4gSFZbMv8JOj8L-TY5PP_dWKpWvIt1w_QQb52KM450auDbDgqWlEhCdw3xe8jJkEuItdx0DEOxVGhR9PNc-HXwCRFVTjOq9Z9qAkBRK5g",
         "scope" : "GOOGLE",
         "types" : [ "bar", "point_of_interest", "establishment" ],
         "vicinity" : "Surat, Bamroli, Udhna, Surat"
      },
      {
         "geometry" : {
            "location" : {
               "lat" : 21.1976868,
               "lng" : 72.8029425
            },
            "viewport" : {
               "northeast" : {
                  "lat" : 21.19903662989272,
                  "lng" : 72.80429232989273
               },
               "southwest" : {
                  "lat" : 21.19633697010728,
                  "lng" : 72.80159267010728
               }
            }
         },
         "icon" : "https://maps.gstatic.com/mapfiles/place_api/icons/bar-71.png",
         "id" : "886d009f1e3931f402aacba799dbf3937988b11b",
         "name" : "Sugar Cane Juice Center",
         "opening_hours" : {
            "open_now" : true,
            "weekday_text" : []
         },
         "place_id" : "ChIJyS6GtypM4DsRlUlx4Q3aT9I",
         "rating" : 4.7,
         "reference" : "CmRbAAAAo1JzMW-kPFwMlalior810prjJ-Ziw8g_DR60ETn4GH6MmXvRo41CYF19l8W748_NydOryW1n9Epm5Ltwb4REClwIJSBPAPsj3Xs_HPeA3eJ_1oAjVydtgEgCxQMHwssdEhBHHsyBKG567yRkzI6XBjfqGhTAFuk0nds1LTHisMRN4HvkoKvUwg",
         "scope" : "GOOGLE",
         "types" : [ "bar", "point_of_interest", "establishment" ],
         "vicinity" : "1-d, V-2, Krishnanagar Society, Adajan Circle, Rander Rd, Jashvanti Nagar, Adajan, Surat"
      },
      {
         "geometry" : {
            "location" : {
               "lat" : 21.1675625,
               "lng" : 72.7858045
            },
            "viewport" : {
               "northeast" : {
                  "lat" : 21.16891232989272,
                  "lng" : 72.78715432989273
               },
               "southwest" : {
                  "lat" : 21.16621267010728,
                  "lng" : 72.78445467010728
               }
            }
         },
         "icon" : "https://maps.gstatic.com/mapfiles/place_api/icons/bar-71.png",
         "id" : "5de77382b67913b04453d2dfeafe696a3430a8c8",
         "name" : "Swaminarayan Soda",
         "photos" : [
            {
               "height" : 3480,
               "html_attributions" : [
                  "\u003ca href=\"https://maps.google.com/maps/contrib/103305415533290166230/photos\"\u003eShaikh Ahmer\u003c/a\u003e"
               ],
               "photo_reference" : "CmRaAAAA2uL77cDZEzPaOQPJp3DWE21YEkVGCpvLOqvw3XCHtyg5sTL0JnBlfni6wlelBlMr97G4C_lziKgBiv5wH0KeNnz3TVXHK9c1EjDiL8VeuET2juEFWAadWmL56PEGHVw1EhCg9yGY-732xGZxM4dKFPnVGhRF3jH565ybXpSfRwMKRksXg3o9cA",
               "width" : 4640
            }
         ],
         "place_id" : "ChIJobqd6OtN4DsRL4zJd6mvsKQ",
         "reference" : "CmRbAAAA4ESVcrZE_hl8jULxJWT-flyTvgws8Ad01ayQXZCmiGsalxOZ6PnW2tQsCIsE8BccpLxCQE9KjeO5Q9io6hVp8fnQ66pZZNrnVZ9b7kFlL0NPEPhhHNvQtjJj_7xQcOwHEhAReSt1LyJp4hyOsHuw0ecXGhRTtv4c7hdHj62x_bbG90VlE-cwJQ",
         "scope" : "GOOGLE",
         "types" : [ "bar", "point_of_interest", "establishment" ],
         "vicinity" : "Surat, SVNIT Campus, Athwa, Surat"
      },
      {
         "geometry" : {
            "location" : {
               "lat" : 21.2124873,
               "lng" : 72.8498826
            },
            "viewport" : {
               "northeast" : {
                  "lat" : 21.21383712989272,
                  "lng" : 72.85123242989272
               },
               "southwest" : {
                  "lat" : 21.21113747010728,
                  "lng" : 72.84853277010728
               }
            }
         },
         "icon" : "https://maps.gstatic.com/mapfiles/place_api/icons/bar-71.png",
         "id" : "c90323b0169b348e894d1f1acd14a8f8c63557b9",
         "name" : "Mr.Gorasiya House",
         "opening_hours" : {
            "open_now" : true,
            "weekday_text" : []
         },
         "place_id" : "ChIJhYTN3f5P4DsRo1GkUh8ItqM",
         "reference" : "CmRbAAAA7lG3x8Untb-SeZZHx9kPskD45UTT0pLlk6TmHAZYcEWPrmFqHRjV21_G83wzL4e71cwq74kWwdHVRGtuYqD82Xm5N9PUF_WG8lesJswPPsBNfKJEbARbWK6HH1TAWZkDEhCL4pTFHpPMTWl6vHbyQgYcGhR9hroBeuudcTMaA5uikPvw6sP0sQ",
         "scope" : "GOOGLE",
         "types" : [ "bar", "point_of_interest", "establishment" ],
         "vicinity" : "8; Gajera Park Soc... Minibazzar, Kodiyar Nagar, Surat"
      },
      {
         "geometry" : {
            "location" : {
               "lat" : 21.1759717,
               "lng" : 72.8621787
            },
            "viewport" : {
               "northeast" : {
                  "lat" : 21.17730787989272,
                  "lng" : 72.86322882989273
               },
               "southwest" : {
                  "lat" : 21.17460822010728,
                  "lng" : 72.86052917010728
               }
            }
         },
         "icon" : "https://maps.gstatic.com/mapfiles/place_api/icons/bar-71.png",
         "id" : "9bce27a395e49d647f8e405362f23db5d267218a",
         "name" : "Bhaskar",
         "place_id" : "ChIJAxM3lMhP4DsRs2V7NOHR2Io",
         "rating" : 3,
         "reference" : "CmRbAAAA6_-OlbGBg1bs6hgYXSMQXQwM_LyFXArDTWZ5MogDdd_OA-UUgBwc5NBcIS6zFxLIwTxuCIsYNfaK6HBmiekHefYs7xjwNqWiL55ybFzyWfzRGfjQIWULauxQoHThPb4-EhDGXNyqEtISzVq56O7HTN84GhRMCPXlBZO71xUNGpWu5hwzf_A4jQ",
         "scope" : "GOOGLE",
         "types" : [ "bar", "point_of_interest", "establishment" ],
         "vicinity" : "Plot No.3,4, Dumbhal Rd, Mahaprabhu Nagar, D K Nagar, Limbayat, Surat"
      },
      {
         "geometry" : {
            "location" : {
               "lat" : 21.1702401,
               "lng" : 72.83106070000001
            },
            "viewport" : {
               "northeast" : {
                  "lat" : 21.17158992989272,
                  "lng" : 72.83241052989273
               },
               "southwest" : {
                  "lat" : 21.16889027010728,
                  "lng" : 72.82971087010728
               }
            }
         },
         "icon" : "https://maps.gstatic.com/mapfiles/place_api/icons/bar-71.png",
         "id" : "44ba145d229b15a8aa75745a1b9f00d39c02c758",
         "name" : "Mitu",
         "place_id" : "ChIJqeSQZTlP4DsR6YyHaL40qog",
         "reference" : "CmRbAAAAF_NRCNe0nqMc8AtI4fGC1J_8Wp1rNkKMfDiSX7NSzcr_eomkNud6pWo-csWWUBMbhNxsiu250AT5B4RF-neQWKPdajWFCfsV0U8Vctvt-O-o7iPfTq1FBV5gBk1IX8oSEhAUPNL6BUjcp0u0EihpCv10GhQe5REwNHHy35ZJm6C27_GUsVeKfw",
         "scope" : "GOOGLE",
         "types" : [ "bar", "point_of_interest", "establishment" ],
         "vicinity" : "Laxmi Nagar, Udhna, Surat"
      }
   ],
   "status" : "OK"
}
