{
   "html_attributions" : [],
   "results" : [
      {
         "geometry" : {
            "location" : {
               "lat" : 21.1762184,
               "lng" : 72.7326894
            },
            "viewport" : {
               "northeast" : {
                  "lat" : 21.17756822989272,
                  "lng" : 72.73403922989272
               },
               "southwest" : {
                  "lat" : 21.17486857010728,
                  "lng" : 72.73133957010727
               }
            }
         },
         "icon" : "https://maps.gstatic.com/mapfiles/place_api/icons/lodging-71.png",
         "id" : "2c4a4d83078ccb178d101150911cb3b34f63694e",
         "name" : "Courtyard Surat",
         "photos" : [
            {
               "height" : 2560,
               "html_attributions" : [
                  "\u003ca href=\"https://maps.google.com/maps/contrib/114490961030089784975/photos\"\u003eCourtyard by Marriott , Surat\u003c/a\u003e"
               ],
               "photo_reference" : "CmRaAAAAzbOhK8SzIaYsSqPepoJWfMPIAuhYjTfLx0ZMPWfNY4Fy7tYJLHPiXcZ0ZbFCjLM59vvGtTgH9FheG4J43I8_T8LvKM6zra12jYA5lm6jtIJomzpohA7ULJ5Ba2T24pOsEhAwyqDUK7NbqrofBVsYk9J2GhQLcIzr058tRMtvVVaSaZ5fMj_ntQ",
               "width" : 3840
            }
         ],
         "place_id" : "ChIJyYhsXBZN4DsRYu6ZVJBpNEE",
         "rating" : 4.3,
         "reference" : "CmRbAAAAgCKSoZMFwkbRNa5EPDVWbQ7qnuHDAFJt_0wG9MV3n1OBP-wy3BPlp9eXXQ_BCLIyPY2nk_3v4Qz7Rff87UqXY7pb20saN7CQ6dmE4vTnRX-1FK1RSWz_sCXc5qtX-LQiEhB0n4d0UERLnSNUafnM6iyoGhQqAYD0RKyxitaR4AOIZ0TfzDw-ag",
         "scope" : "GOOGLE",
         "types" : [ "lodging", "restaurant", "food", "point_of_interest", "establishment" ],
         "vicinity" : "EARTHSPACE, Hazira Road, Opp ONGC, Bhatpore, Surat"
      },
      {
         "geometry" : {
            "location" : {
               "lat" : 21.194775,
               "lng" : 72.81981800000001
            },
            "viewport" : {
               "northeast" : {
                  "lat" : 21.19612482989272,
                  "lng" : 72.82116782989273
               },
               "southwest" : {
                  "lat" : 21.19342517010728,
                  "lng" : 72.81846817010728
               }
            }
         },
         "icon" : "https://maps.gstatic.com/mapfiles/place_api/icons/generic_business-71.png",
         "id" : "41d5750245101903e339e2554a9990c6989d8710",
         "name" : "Jimmy",
         "place_id" : "ChIJKxxWu2NO4DsRL4gS9PZJKDM",
         "reference" : "CmRbAAAA9phKYwTQMakc7uXXok84GhDn0ig1s-Mv89leVLAVx-U_q295hIiWH-iWqwUdlgeyYwEliIjSJlbN1Hf8M-96TyY5RVu1QcEtX2QVjN-ewVKqrVXZqvodojo9fr9m9j6REhARjr7anfB9d2nVQmooZyh5GhTZcAO4m2OdbEFf9CayXprD8NlS_g",
         "scope" : "GOOGLE",
         "types" : [ "point_of_interest", "establishment" ],
         "vicinity" : "S-2,khurana tower,adajan, Surat"
      },
      {
         "geometry" : {
            "location" : {
               "lat" : 21.1750132,
               "lng" : 72.8032643
            },
            "viewport" : {
               "northeast" : {
                  "lat" : 21.17629467989272,
                  "lng" : 72.80462162989272
               },
               "southwest" : {
                  "lat" : 21.17359502010728,
                  "lng" : 72.80192197010729
               }
            }
         },
         "icon" : "https://maps.gstatic.com/mapfiles/place_api/icons/shopping-71.png",
         "id" : "c5d636dfc7de8393abb1a6beb41bbe8be19829be",
         "name" : "Jimmy",
         "opening_hours" : {
            "open_now" : true,
            "weekday_text" : []
         },
         "place_id" : "ChIJywrepWNO4DsR2703Fu_oXm4",
         "reference" : "CmRbAAAAEN_acOdApRhyF3GfUkkK9H-Sde5jkP6Y4A7BgloWMaPOp9eaJy5lf6-O3as_biQ2-TPeAcaFTMFlqZcaZGjaWfjIvq8RZVSfh5syydui0rBb8lQZoR9CoGh1iPVN9K_9EhDS9Vo2G_6ZFE34A821aV3iGhTQiJEDMkeLHenwi7-NehJ9E7FfBg",
         "scope" : "GOOGLE",
         "types" : [ "store", "point_of_interest", "establishment" ],
         "vicinity" : "Shop No. 8, Abhinandan A/C Market, Ghod Dod Rd, Athwalines, Athwa, Surat"
      },
      {
         "geometry" : {
            "location" : {
               "lat" : 21.1994886,
               "lng" : 72.8051277
            },
            "viewport" : {
               "northeast" : {
                  "lat" : 21.20083842989272,
                  "lng" : 72.80647752989273
               },
               "southwest" : {
                  "lat" : 21.19813877010728,
                  "lng" : 72.80377787010728
               }
            }
         },
         "icon" : "https://maps.gstatic.com/mapfiles/place_api/icons/shopping-71.png",
         "id" : "412647fee2051192eb2036f34ac29ba98a9d70ba",
         "name" : "Leela Stores",
         "opening_hours" : {
            "open_now" : true,
            "weekday_text" : []
         },
         "photos" : [
            {
               "height" : 1152,
               "html_attributions" : [
                  "\u003ca href=\"https://maps.google.com/maps/contrib/103420356926538557189/photos\"\u003eLeela Stores\u003c/a\u003e"
               ],
               "photo_reference" : "CmRaAAAAYxlAxnvtAIrFexNGPSbft-8yKsEEwj6nB-ZJ3W5lfGGKCysZ15wXufIwnAHYKQR1rzloVxh1TopcIL_BnU9ZMB1RdAOs8YsrEeknZCjECbppx3q7p52EZudLMVyfhhE_EhBEXwW_7QSj8Ab2xrdvpf1vGhS2fylTtR0Z8UJ0j9BG3FnrGUXNtA",
               "width" : 2048
            }
         ],
         "place_id" : "ChIJPetGMIBO4DsR5okC_T6IvSQ",
         "rating" : 4.5,
         "reference" : "CmRbAAAANzHiFtXtGDKSg_sPdaR_lvIgHJk33VhS7dJCWA3H4AE9d2TeeG6hoyRqgGfsRe368atFDiKTqEPWbvTZ7buj3VshI_J9Yf3i8qs9Ecbhc-D3juyRsfmwl37vI7gB9kS2EhDNszf0i4FUNudEwjOK2bHtGhSL5qEkmlGBEFVon6o8M8yLp2OMRg",
         "scope" : "GOOGLE",
         "types" : [ "store", "food", "point_of_interest", "establishment" ],
         "vicinity" : "2, Ratan Park Apartment, Rander Rd, Sugam Society, Adajan Patiya, Surat"
      }
   ],
   "status" : "OK"
}
